[
  { "name": "Brenham", "lat": 30.1669, "lon": -96.3977, "surveyUrl": "https://www.woodsonlumber.com/" },
  { "name": "Bryan", "lat": 30.6744, "lon": -96.3743, "surveyUrl": "https://www.woodsonlumber.com/" },
  { "name": "Caldwell", "lat": 30.5316, "lon": -96.6939, "surveyUrl": "https://www.woodsonlumber.com/" },
  { "name": "Lexington", "lat": 30.4152, "lon": -97.0105, "surveyUrl": "https://www.woodsonlumber.com/" },
  { "name": "Groesbeck", "lat": 31.5249, "lon": -96.5336, "surveyUrl": "https://www.woodsonlumber.com/" },
  { "name": "Mexia", "lat": 31.6791, "lon": -96.4822, "surveyUrl": "https://www.woodsonlumber.com/" },
  { "name": "Buffalo", "lat": 31.4632, "lon": -96.0580, "surveyUrl": "https://www.woodsonlumber.com/" }
]
